[
  {
    "id": "DEP-01",
    "name": "Warehouse Berlin",
    "lat": 52.52,
    "lng": 13.405,
    "address": "Berlin, Germany",
    "time_window_start": "07:00",
    "time_window_end": "12:00",
    "service_time_minutes": 22,
    "priority": 2
  },
  {
    "id": "CUST-01",
    "name": "Retail Frankfurt",
    "lat": 50.1109,
    "lng": 8.6821,
    "address": "Frankfurt, Germany",
    "time_window_start": "09:00",
    "time_window_end": "17:00",
    "service_time_minutes": 16,
    "priority": 3
  },
  {
    "id": "CUST-02",
    "name": "Factory Munich",
    "lat": 48.1351,
    "lng": 11.582,
    "address": "Munich, Germany",
    "time_window_start": "08:00",
    "time_window_end": "14:00",
    "service_time_minutes": 15,
    "priority": 1
  },
  {
    "id": "CUST-03",
    "name": "Warehouse Hamburg",
    "lat": 53.5511,
    "lng": 9.9937,
    "address": "Hamburg, Germany",
    "time_window_start": "10:00",
    "time_window_end": "18:00",
    "service_time_minutes": 17,
    "priority": 1
  },
  {
    "id": "CUST-04",
    "name": "DC Cologne",
    "lat": 50.9375,
    "lng": 6.9603,
    "address": "Cologne, Germany",
    "time_window_start": "08:00",
    "time_window_end": "16:00",
    "service_time_minutes": 12,
    "priority": 2
  },
  {
    "id": "CUST-05",
    "name": "Store Stuttgart",
    "lat": 48.7758,
    "lng": 9.1829,
    "address": "Stuttgart, Germany",
    "time_window_start": "07:30",
    "time_window_end": "13:00",
    "service_time_minutes": 22,
    "priority": 3
  },
  {
    "id": "CUST-06",
    "name": "Partner Leipzig",
    "lat": 51.3397,
    "lng": 12.3731,
    "address": "Leipzig, Germany",
    "time_window_start": "09:00",
    "time_window_end": "18:00",
    "service_time_minutes": 27,
    "priority": 1
  },
  {
    "id": "CUST-07",
    "name": "Hub Hanover",
    "lat": 52.3759,
    "lng": 9.732,
    "address": "Hanover, Germany",
    "time_window_start": "08:00",
    "time_window_end": "15:00",
    "service_time_minutes": 29,
    "priority": 2
  },
  {
    "id": "CUST-08",
    "name": "Retail Dresden",
    "lat": 51.0504,
    "lng": 13.7373,
    "address": "Dresden, Germany",
    "time_window_start": "10:00",
    "time_window_end": "17:00",
    "service_time_minutes": 16,
    "priority": 2
  },
  {
    "id": "RET-01",
    "name": "Returns Centre",
    "lat": 48.3736,
    "lng": 10.8945,
    "address": "Augsburg, Germany",
    "time_window_start": "08:00",
    "time_window_end": "12:00",
    "service_time_minutes": 29,
    "priority": 3
  }
]